{
  "ACF Agro Marketing": {
    "city": "Wardha",
    "district": "Wardha",
    "lat": 20.7464941,
    "lon": 78.5997922
  },
  "Aarni": {
    "city": "Arni",
    "district": "Yavatmal",
    "lat": 20.0538582,
    "lon": 77.9942367
  },
  "Aatpadi": {
    "city": "Atpadi",
    "district": "Sangli",
    "lat": 17.4226767,
    "lon": 74.9391219
  },
  "Achalpur": {
    "city": "Achalpur",
    "district": "Amravati",
    "lat": 21.2407925,
    "lon": 77.427797
  },
  "Aheri": {
    "city": "Aheri",
    "district": "Gadchiroli",
    "lat": 19.4131755,
    "lon": 80.0039973
  },
  "Ahmednagar": {
    "city": "Ahmednagar",
    "district": "Ahmednagar",
    "lat": 19.0436206,
    "lon": 74.7426763
  },
  "Ahmedpur": {
    "city": "Ahmedpur",
    "district": "Latur",
    "lat": 18.6447571,
    "lon": 76.9346572
  },
  "Akhadabalapur": {
    "city": "Akhada Balapur",
    "district": "Hingoli",
    "lat": 19.5306445,
    "lon": 77.4163655
  },
  "Akkalkot": {
    "city": "Akkalkot",
    "district": "Solapur",
    "lat": 17.515193,
    "lon": 76.212278
  },
  "Akkalkuwa": {
    "city": "Akkalkuwa",
    "district": "Nandurbar",
    "lat": 21.7005683,
    "lon": 74.00019
  },
  "Akluj": {
    "city": "Akluj",
    "district": "Solapur",
    "lat": 17.8930069,
    "lon": 75.0204482
  },
  "Akola": {
    "city": "Akola",
    "district": "Akola",
    "lat": 20.7116604,
    "lon": 77.002632
  },
  "Akole": {
    "city": "Akole",
    "district": "Ahmednagar",
    "lat": 19.5419344,
    "lon": 74.0092582
  },
  "Akot": {
    "city": "Akot",
    "district": "Akola",
    "lat": 21.047461,
    "lon": 77.0552761
  },
  "Alibagh": {
    "city": "Alibag",
    "district": "Raigad",
    "lat": 18.6498427,
    "lon": 72.8765469
  },
  "Amalner": {
    "city": "Amalner",
    "district": "Jalgaon",
    "lat": 21.0493189,
    "lon": 75.0573385
  },
  "Amarawati": {
    "city": "Amravati",
    "district": "Amravati",
    "lat": 20.9316219,
    "lon": 77.7588455
  },
  "Ambad (Vadigodri)": {
    "city": "Ambad",
    "district": "Jalna",
    "lat": 19.6145861,
    "lon": 75.7946725
  },
  "Ambejaogai": {
    "city": "Ambajogai",
    "district": "Beed",
    "lat": 18.7318232,
    "lon": 76.3854836
  },
  "Amgaon": {
    "city": "Amgaon",
    "district": "Gondia",
    "lat": 21.1259974,
    "lon": 79.7357906
  },
  "Anajngaon": {
    "city": "Anjangaon",
    "district": "Amravati",
    "lat": 21.1638392,
    "lon": 77.3110843
  },
  "Arjuni": {
    "city": "Arjuni Morgaon",
    "district": "Gondia",
    "lat": 20.8264398,
    "lon": 80.0177924
  },
  "Armori": {
    "city": "Armori",
    "district": "Gadchiroli",
    "lat": 20.4711468,
    "lon": 79.9794563
  },
  "Arvi": {
    "city": "Arvi",
    "district": "Wardha",
    "lat": 20.9361501,
    "lon": 78.2892169
  },
  "Ashti": {
    "city": "Ashti",
    "district": "Beed",
    "lat": 18.8874877,
    "lon": 75.0655018
  },
  "Ashti(Jalna)": {
    "city": "Ashti",
    "district": "Jalna",
    "lat": 19.37657,
    "lon": 76.2232575
  },
  "Ashti(Karanja)": {
    "city": "Ashti",
    "district": "Wardha",
    "lat": 21.2009497,
    "lon": 78.1865311
  },
  "Aurad Shahajani": {
    "city": "Aurad Shahajani",
    "district": "Latur",
    "lat": 18.0555297,
    "lon": 76.9286183
  },
  "Ausa": {
    "city": "Ausa",
    "district": "Latur",
    "lat": 18.2510243,
    "lon": 76.500958
  },
  "Babhulgaon": {
    "city": "Babhulgaon",
    "district": "Yavatmal",
    "lat": 20.55657,
    "lon": 78.165693
  },
  "Balapur": {
    "city": "Balapur",
    "district": "Akola",
    "lat": 20.7326962,
    "lon": 76.8363281
  },
  "Baramati": {
    "city": "Baramati",
    "district": "Pune",
    "lat": 18.2198538,
    "lon": 74.4534054
  },
  "Barshi": {
    "city": "Barshi",
    "district": "Solapur",
    "lat": 18.2341108,
    "lon": 75.6875109
  },
  "Barshi Takli": {
    "city": "Barshitakli",
    "district": "Akola",
    "lat": 20.522587,
    "lon": 77.1579595
  },
  "Basmat": {
    "city": "Basmath",
    "district": "Hingoli",
    "lat": 19.312161,
    "lon": 77.1068813
  },
  "Beed": {
    "city": "Beed",
    "district": "Beed",
    "lat": 18.9904059,
    "lon": 75.7542291
  },
  "Bhadrawati": {
    "city": "Bhadravati",
    "district": "Chandrapur",
    "lat": 20.1064591,
    "lon": 79.1157063
  },
  "Bhandara": {
    "city": "Bhandara",
    "district": "Bhandara",
    "lat": 21.1706698,
    "lon": 79.65658
  },
  "Bhivandi": {
    "city": "Bhiwandi",
    "district": "Thane",
    "lat": 19.3025562,
    "lon": 73.0588072
  },
  "Bhiwapur": {
    "city": "Bhiwapur",
    "district": "Nagpur",
    "lat": 20.7638074,
    "lon": 79.5198922
  },
  "Bhokar": {
    "city": "Bhokar",
    "district": "Nanded",
    "lat": 19.1948254,
    "lon": 77.683399
  },
  "Bhokardan": {
    "city": "Bhokardan",
    "district": "Jalna",
    "lat": 20.2928317,
    "lon": 75.8040159
  },
  "Bhoom": {
    "city": "Bhoom",
    "district": "Dharashiv",
    "lat": 18.4596302,
    "lon": 75.6598088
  },
  "Bhor": {
    "city": "Bhor",
    "district": "Pune",
    "lat": 18.2127607,
    "lon": 73.8163663
  },
  "Bhusaval": {
    "city": "Bhusawal",
    "district": "Jalgaon",
    "lat": 21.04572,
    "lon": 75.7808079
  },
  "Bodwad": {
    "city": "Bodwad",
    "district": "Jalgaon",
    "lat": 20.9034659,
    "lon": 76.0174431
  },
  "Bori": {
    "city": "Bori",
    "district": "Parbhani",
    "lat": 19.4922722,
    "lon": 76.7308783
  },
  "Bori Arab": {
    "city": "Bori Arab",
    "district": "Yavatmal",
    "lat": 20.0638677,
    "lon": 78.3565663
  },
  "Brahmpuri": {
    "city": "Brahmapuri",
    "district": "Chandrapur",
    "lat": 20.6040327,
    "lon": 79.868277
  },
  "Buldhana": {
    "city": "Buldhana",
    "district": "Buldhana",
    "lat": 20.53208,
    "lon": 76.179911
  },
  "Chakur": {
    "city": "Chakur",
    "district": "Latur",
    "lat": 18.5174717,
    "lon": 76.8766202
  },
  "Chalisgaon": {
    "city": "Chalisgaon",
    "district": "Jalgaon",
    "lat": 20.5023656,
    "lon": 74.96557
  },
  "Chamorshi": {
    "city": "Chamorshi",
    "district": "Gadchiroli",
    "lat": 19.9370829,
    "lon": 79.8893906
  },
  "Chandrapur": {
    "city": "Chandrapur",
    "district": "Chandrapur",
    "lat": 19.9508161,
    "lon": 79.2986673
  },
  "Chandur Bazar": {
    "city": "Chandur Bazar",
    "district": "Amravati",
    "lat": 21.2375703,
    "lon": 77.7479366
  },
  "Chandur Railway": {
    "city": "Chandur Railway",
    "district": "Amravati",
    "lat": 20.7648721,
    "lon": 77.9730351
  },
  "Chandvad": {
    "city": "Chandwad",
    "district": "Nashik",
    "lat": 20.2781341,
    "lon": 74.2128638
  },
  "Chattrapati Sambhajinagar": {
    "city": "Aurangabad",
    "district": "Chattrapati Sambhajinagar",
    "lat": 19.877263,
    "lon": 75.3390241
  },
  "Chikali": {
    "city": "Chikhli",
    "district": "Buldhana",
    "lat": 20.349113,
    "lon": 76.2524987
  },
  "Chimur": {
    "city": "Chimur",
    "district": "Chandrapur",
    "lat": 20.4942258,
    "lon": 79.373825
  },
  "Chopada": {
    "city": "Chopda",
    "district": "Jalgaon",
    "lat": 21.2471857,
    "lon": 75.2989555
  },
  "Cottoncity Agro Foods": {
    "city": "Wani",
    "district": "Yavatmal",
    "lat": 20.0574,
    "lon": 78.9565
  },
  "Darwha": {
    "city": "Darwha",
    "district": "Yavatmal",
    "lat": 20.3248917,
    "lon": 77.7779409
  },
  "Daryapur": {
    "city": "Daryapur",
    "district": "Amravati",
    "lat": 20.9244231,
    "lon": 77.3240074
  },
  "Deglur": {
    "city": "Deglur",
    "district": "Nanded",
    "lat": 18.4680418,
    "lon": 77.4999325
  },
  "Deoulgaon Raja": {
    "city": "Deulgaon Raja",
    "district": "Buldhana",
    "lat": 20.0716728,
    "lon": 76.1588049
  },
  "Devala": {
    "city": "Deola",
    "district": "Nashik",
    "lat": 20.461008,
    "lon": 74.1828191
  },
  "Devani": {
    "city": "Deoni",
    "district": "Latur",
    "lat": 18.2644438,
    "lon": 77.0821345
  },
  "Dhadgaon": {
    "city": "Dhadgaon",
    "district": "Nandurbar",
    "lat": 21.8249883,
    "lon": 74.218645
  },
  "Dhamngaon-Railway": {
    "city": "Dhamangaon",
    "district": "Amravati",
    "lat": 21.3481231,
    "lon": 77.4313607
  },
  "Dharangaon": {
    "city": "Dharangaon",
    "district": "Jalgaon",
    "lat": 21.0061881,
    "lon": 75.2863345
  },
  "Dharashiv": {
    "city": "Osmanabad",
    "district": "Dharashiv",
    "lat": 18.2822454,
    "lon": 76.0588166
  },
  "Dharmabad": {
    "city": "Dharmabad",
    "district": "Nanded",
    "lat": 18.9216786,
    "lon": 77.762348
  },
  "Dharni": {
    "city": "Dharni",
    "district": "Amravati",
    "lat": 21.5524242,
    "lon": 76.8891927
  },
  "Dhule": {
    "city": "Dhule",
    "district": "Dhule",
    "lat": 20.898,
    "lon": 74.7732
  },
  "Digras": {
    "city": "Digras",
    "district": "Yavatmal",
    "lat": 20.1041813,
    "lon": 77.7167937
  },
  "Dindori": {
    "city": "Dindori",
    "district": "Nashik",
    "lat": 20.2037292,
    "lon": 73.8325882
  },
  "Dondaicha": {
    "city": "Dondaicha",
    "district": "Dhule",
    "lat": 21.3312641,
    "lon": 74.5628682
  },
  "Dound": {
    "city": "Daund",
    "district": "Pune",
    "lat": 18.4834351,
    "lon": 74.3621686
  },
  "Dudhani": {
    "city": "Dudhani",
    "district": "Solapur",
    "lat": 17.3596886,
    "lon": 76.3692208
  },
  "Fulmbri": {
    "city": "Phulambri",
    "district": "Chattrapati Sambhajinagar",
    "lat": 20.1304621,
    "lon": 75.4909097
  },
  "Gadhinglaj": {
    "city": "Gadhinglaj",
    "district": "Kolhapur",
    "lat": 16.1409008,
    "lon": 74.4036933
  },
  "Gandchiroli": {
    "city": "Gadchiroli",
    "district": "Gadchiroli",
    "lat": 20.1853965,
    "lon": 80.003509
  },
  "Gangakhed": {
    "city": "Gangakhed",
    "district": "Parbhani",
    "lat": 18.9130998,
    "lon": 76.7557068
  },
  "Gangapur": {
    "city": "Gangapur",
    "district": "Chattrapati Sambhajinagar",
    "lat": 19.6977616,
    "lon": 75.0124415
  },
  "Gevrai": {
    "city": "Georai",
    "district": "Beed",
    "lat": 19.2621403,
    "lon": 75.7396019
  },
  "Ghansawangi": {
    "city": "Ghansawangi",
    "district": "Jalna",
    "lat": 19.492486,
    "lon": 76.0196292
  },
  "Ghatanji": {
    "city": "Ghatanji",
    "district": "Yavatmal",
    "lat": 20.0193812,
    "lon": 78.2746661
  },
  "Ghoti": {
    "city": "Ghoti",
    "district": "Nashik",
    "lat": 19.7167761,
    "lon": 73.6244742
  },
  "Gondiya": {
    "city": "Gondia",
    "district": "Gondia",
    "lat": 21.4611517,
    "lon": 80.1931894
  },
  "Gondpimpri": {
    "city": "Gondpipri",
    "district": "Chandrapur",
    "lat": 19.7174815,
    "lon": 79.6866721
  },
  "Goregaon": {
    "city": "Goregaon",
    "district": "Gondia",
    "lat": 19.1648688,
    "lon": 72.8495492
  },
  "Hadgaon": {
    "city": "Hadgaon",
    "district": "Nanded",
    "lat": 19.4786171,
    "lon": 77.6068042
  },
  "Himalyatnagar": {
    "city": "Himayatnagar",
    "district": "Nanded",
    "lat": 19.4112104,
    "lon": 77.8437928
  },
  "Hinganghat": {
    "city": "Hinganghat",
    "district": "Wardha",
    "lat": 20.542611,
    "lon": 78.8331636
  },
  "Hingna": {
    "city": "Hingna",
    "district": "Nagpur",
    "lat": 21.0751769,
    "lon": 78.9683723
  },
  "Hingoli": {
    "city": "Hingoli",
    "district": "Hingoli",
    "lat": 19.8035118,
    "lon": 77.1792598
  },
  "Indapur": {
    "city": "Indapur",
    "district": "Pune",
    "lat": 18.1125305,
    "lon": 74.9238654
  },
  "Islampur": {
    "city": "Islampur",
    "district": "Sangli",
    "lat": 17.0502198,
    "lon": 74.2661719
  },
  "Jafrabad": {
    "city": "Jafrabad",
    "district": "Jalna",
    "lat": 20.207044,
    "lon": 76.004013
  },
  "Jalana": {
    "city": "Jalna",
    "district": "Jalna",
    "lat": 19.8318228,
    "lon": 75.8909339
  },
  "Jalgaon": {
    "city": "Jalgaon",
    "district": "Jalgaon",
    "lat": 19.9037754,
    "lon": 75.3640888
  },
  "Jalgaon Jamod": {
    "city": "Jalgaon Jamod",
    "district": "Buldhana",
    "lat": 21.0596569,
    "lon": 76.4954523
  },
  "Jalkot": {
    "city": "Jalkot",
    "district": "Latur",
    "lat": 18.6290607,
    "lon": 77.1783024
  },
  "Jamkhed": {
    "city": "Jamkhed",
    "district": "Ahmednagar",
    "lat": 18.6687506,
    "lon": 75.3523878
  },
  "Jamner": {
    "city": "Jamner",
    "district": "Jalgaon",
    "lat": 20.7322848,
    "lon": 75.8024335
  },
  "Jawala-Bajar": {
    "city": "Jawala Bazar",
    "district": "Hingoli",
    "lat": 19.4664304,
    "lon": 76.9850206
  },
  "Jawali": {
    "city": "Jawali",
    "district": "Satara",
    "lat": 19.8722998,
    "lon": 77.447176
  },
  "Jintur": {
    "city": "Jintur",
    "district": "Parbhani",
    "lat": 19.6106542,
    "lon": 76.7435617
  },
  "Junnar": {
    "city": "Junnar",
    "district": "Pune",
    "lat": 19.2006808,
    "lon": 73.976819
  },
  "Kada": {
    "city": "Kada",
    "district": "Beed",
    "lat": 18.896328,
    "lon": 75.0785773
  },
  "Kaij": {
    "city": "Kaij",
    "district": "Beed",
    "lat": 18.7141179,
    "lon": 76.0651612
  },
  "Kalamb": {
    "city": "Kalamb",
    "district": "Dharashiv",
    "lat": 18.5730474,
    "lon": 76.0224924
  },
  "Kalamnuri": {
    "city": "Kalamnuri",
    "district": "Hingoli",
    "lat": 19.572346,
    "lon": 77.3474949
  },
  "Kalmeshwar": {
    "city": "Kalmeshwar",
    "district": "Nagpur",
    "lat": 21.2374393,
    "lon": 78.9081689
  },
  "Kalvan": {
    "city": "Kalwan",
    "district": "Nashik",
    "lat": 20.490904,
    "lon": 74.0240765
  },
  "Kalyan": {
    "city": "Kalyan",
    "district": "Thane",
    "lat": 19.2396742,
    "lon": 73.1366482
  },
  "Kamthi": {
    "city": "Kamptee",
    "district": "Nagpur",
    "lat": 21.2170645,
    "lon": 79.1964178
  },
  "Kandhar": {
    "city": "Kandhar",
    "district": "Nanded",
    "lat": 18.8424512,
    "lon": 77.2510666
  },
  "Kannad": {
    "city": "Kannad",
    "district": "Chattrapati Sambhajinagar",
    "lat": 20.2654298,
    "lon": 75.1322409
  },
  "Karad": {
    "city": "Karad",
    "district": "Satara",
    "lat": 17.2852127,
    "lon": 74.1822147
  },
  "Karanja": {
    "city": "Karanja",
    "district": "Washim",
    "lat": 20.4820707,
    "lon": 77.489234
  },
  "Karjat": {
    "city": "Karjat",
    "district": "Ahmednagar",
    "lat": 18.57983,
    "lon": 75.0015318
  },
  "Karjat(Raigad)": {
    "city": "Karjat",
    "district": "Raigad",
    "lat": 18.9127655,
    "lon": 73.3228202
  },
  "Karmala": {
    "city": "Karmala",
    "district": "Solapur",
    "lat": 18.321381,
    "lon": 75.1168773
  },
  "Katol": {
    "city": "Katol",
    "district": "Nagpur",
    "lat": 21.2751818,
    "lon": 78.5865696
  },
  "Khalapur": {
    "city": "Khalapur",
    "district": "Raigad",
    "lat": 18.8321669,
    "lon": 73.2852464
  },
  "Khamgaon": {
    "city": "Khamgaon",
    "district": "Buldhana",
    "lat": 20.6502239,
    "lon": 76.5591868
  },
  "Khed": {
    "city": "Khed",
    "district": "Pune",
    "lat": 18.8515893,
    "lon": 73.836186
  },
  "Khultabad": {
    "city": "Khultabad",
    "district": "Chattrapati Sambhajinagar",
    "lat": 20.0123656,
    "lon": 75.1928883
  },
  "Kille Dharur": {
    "city": "Dharur",
    "district": "Beed",
    "lat": 18.8204315,
    "lon": 76.1137332
  },
  "Kinwat": {
    "city": "Kinwat",
    "district": "Nanded",
    "lat": 19.577469,
    "lon": 78.2440088
  },
  "Kolhapur": {
    "city": "Kolhapur",
    "district": "Kolhapur",
    "lat": 16.7028412,
    "lon": 74.2405329
  },
  "Kopargaon": {
    "city": "Kopargaon",
    "district": "Ahmednagar",
    "lat": 19.8370037,
    "lon": 74.4829123
  },
  "Koregaon": {
    "city": "Koregaon",
    "district": "Satara",
    "lat": 17.6919946,
    "lon": 74.1490683
  },
  "Korpana": {
    "city": "Korpana",
    "district": "Chandrapur",
    "lat": 19.7405915,
    "lon": 78.9893603
  },
  "Kurdwadi": {
    "city": "Kurduvadi",
    "district": "Solapur",
    "lat": 18.090766,
    "lon": 75.4139381
  },
  "Lakhandur": {
    "city": "Lakhandur",
    "district": "Bhandara",
    "lat": 20.7549048,
    "lon": 79.8838444
  },
  "Lakhani": {
    "city": "Lakhani",
    "district": "Bhandara",
    "lat": 21.0721357,
    "lon": 79.8261077
  },
  "Lasalgaon": {
    "city": "Lasalgaon",
    "district": "Nashik",
    "lat": 20.1426837,
    "lon": 74.2377507
  },
  "Lasur Station": {
    "city": "Lasur",
    "district": "Chattrapati Sambhajinagar",
    "lat": 20.8729273,
    "lon": 77.2375019
  },
  "Latur": {
    "city": "Latur",
    "district": "Latur",
    "lat": 18.3982273,
    "lon": 76.5625913
  },
  "Loha": {
    "city": "Loha",
    "district": "Nanded",
    "lat": 18.9360844,
    "lon": 77.1015489
  },
  "Lonand": {
    "city": "Lonand",
    "district": "Satara",
    "lat": 18.0387975,
    "lon": 74.186926
  },
  "Lonar": {
    "city": "Lonar",
    "district": "Buldhana",
    "lat": 19.9830917,
    "lon": 76.4911448
  },
  "Mahad": {
    "city": "Mahad",
    "district": "Raigad",
    "lat": 18.080753,
    "lon": 73.42438
  },
  "Mahagaon": {
    "city": "Mahagaon",
    "district": "Yavatmal",
    "lat": 19.8336102,
    "lon": 77.7582751
  },
  "Majalgaon": {
    "city": "Majalgaon",
    "district": "Beed",
    "lat": 19.1551307,
    "lon": 76.2099185
  },
  "Malegaon": {
    "city": "Malegaon",
    "district": "Nashik",
    "lat": 20.5576062,
    "lon": 74.5246514
  },
  "Malegaon(Vashim)": {
    "city": "Malegaon",
    "district": "Washim",
    "lat": 20.2585033,
    "lon": 76.976574
  },
  "Malkapur": {
    "city": "Malkapur",
    "district": "Buldhana",
    "lat": 20.891958,
    "lon": 76.2040353
  },
  "Manchar": {
    "city": "Manchar",
    "district": "Pune",
    "lat": 19.0033298,
    "lon": 73.942711
  },
  "Mandhal": {
    "city": "Mandhal",
    "district": "Nagpur",
    "lat": 20.9522941,
    "lon": 79.4610983
  },
  "Mangal Wedha": {
    "city": "Mangalvedha",
    "district": "Solapur",
    "lat": 17.5231387,
    "lon": 75.444798
  },
  "Mangaon": {
    "city": "Mangaon",
    "district": "Raigad",
    "lat": 18.2475244,
    "lon": 73.2755104
  },
  "Mangrulpeer": {
    "city": "Mangrulpir",
    "district": "Washim",
    "lat": 20.3721672,
    "lon": 77.2475837
  },
  "Manmad": {
    "city": "Manmad",
    "district": "Nashik",
    "lat": 20.2519828,
    "lon": 74.4392286
  },
  "Manora": {
    "city": "Manora",
    "district": "Washim",
    "lat": 20.2247109,
    "lon": 77.5502264
  },
  "Mantha": {
    "city": "Mantha",
    "district": "Jalna",
    "lat": 19.7302305,
    "lon": 76.3346934
  },
  "Manwat": {
    "city": "Manwath",
    "district": "Parbhani",
    "lat": 19.243584,
    "lon": 76.559161
  },
  "Maregoan": {
    "city": "Maregaon",
    "district": "Yavatmal",
    "lat": 20.1517661,
    "lon": 78.7944725
  },
  "Mauda": {
    "city": "Mouda",
    "district": "Nagpur",
    "lat": 21.147604,
    "lon": 79.4138141
  },
  "Mehekar": {
    "city": "Mehkar",
    "district": "Buldhana",
    "lat": 20.2546987,
    "lon": 76.6332656
  },
  "Mohol": {
    "city": "Mohol",
    "district": "Solapur",
    "lat": 17.770961,
    "lon": 75.6435053
  },
  "Morshi": {
    "city": "Morshi",
    "district": "Amravati",
    "lat": 21.3416664,
    "lon": 78.0140337
  },
  "Motala": {
    "city": "Motala",
    "district": "Buldhana",
    "lat": 20.6850169,
    "lon": 76.1528804
  },
  "Mudkhed": {
    "city": "Mudkhed",
    "district": "Nanded",
    "lat": 19.1393504,
    "lon": 77.501393
  },
  "Mukhed": {
    "city": "Mukhed",
    "district": "Nanded",
    "lat": 18.5753654,
    "lon": 77.3839246
  },
  "Mul": {
    "city": "Mul",
    "district": "Chandrapur",
    "lat": 20.0651224,
    "lon": 79.6767277
  },
  "Mumbai": {
    "city": "Mumbai",
    "district": "Mumbai",
    "lat": 19.0734509,
    "lon": 73.0106205
  },
  "Murbad": {
    "city": "Murbad",
    "district": "Thane",
    "lat": 19.257118,
    "lon": 73.3907493
  },
  "Murtizapur": {
    "city": "Murtizapur",
    "district": "Akola",
    "lat": 20.6919255,
    "lon": 77.0170008
  },
  "Murud": {
    "city": "Murud",
    "district": "Latur",
    "lat": 18.5359845,
    "lon": 76.3098608
  },
  "Murum": {
    "city": "Murum",
    "district": "Dharashiv",
    "lat": 17.786978,
    "lon": 76.476106
  },
  "Nagbhid": {
    "city": "Nagbhid",
    "district": "Chandrapur",
    "lat": 20.5841998,
    "lon": 79.6820032
  },
  "Nagpur": {
    "city": "Nagpur",
    "district": "Nagpur",
    "lat": 21.1498134,
    "lon": 79.0820556
  },
  "Naigaon": {
    "city": "Naigaon",
    "district": "Nanded",
    "lat": 18.8766865,
    "lon": 77.5119088
  },
  "Nampur": {
    "city": "Nampur",
    "district": "Nashik",
    "lat": 20.7295457,
    "lon": 74.3109024
  },
  "Nanded": {
    "city": "Nanded",
    "district": "Nanded",
    "lat": 19.1725722,
    "lon": 77.2914124
  },
  "Nandgaon": {
    "city": "Nandgaon",
    "district": "Nashik",
    "lat": 20.3094018,
    "lon": 74.6597622
  },
  "Nandgaon Khandeshwar": {
    "city": "Nandgaon Khandeshwar",
    "district": "Amravati",
    "lat": 20.6966141,
    "lon": 77.7634554
  },
  "Nandura": {
    "city": "Nandura",
    "district": "Buldhana",
    "lat": 20.8385687,
    "lon": 76.4603069
  },
  "Nandurbar": {
    "city": "Nandurbar",
    "district": "Nandurbar",
    "lat": 21.363778,
    "lon": 74.2411418
  },
  "Narkhed": {
    "city": "Narkhed",
    "district": "Nagpur",
    "lat": 21.4713218,
    "lon": 78.5337171
  },
  "Nashik(Devlali)": {
    "city": "Deolali",
    "district": "Nashik",
    "lat": 19.9183943,
    "lon": 73.8319469
  },
  "Nasik": {
    "city": "Nashik",
    "district": "Nashik",
    "lat": 20.0112475,
    "lon": 73.7902364
  },
  "Navapur": {
    "city": "Navapur",
    "district": "Nandurbar",
    "lat": 21.1666239,
    "lon": 73.7725174
  },
  "Ner Parasopant": {
    "city": "Ner",
    "district": "Yavatmal",
    "lat": 20.4905965,
    "lon": 77.8118533
  },
  "Newasa": {
    "city": "Newasa",
    "district": "Ahmednagar",
    "lat": 19.3657538,
    "lon": 75.2060859
  },
  "Nilanga": {
    "city": "Nilanga",
    "district": "Latur",
    "lat": 18.0837667,
    "lon": 76.7992287
  },
  "Nira": {
    "city": "Nira",
    "district": "Pune",
    "lat": 18.1002478,
    "lon": 74.2136809
  },
  "Pachora": {
    "city": "Pachora",
    "district": "Jalgaon",
    "lat": 20.6562576,
    "lon": 75.4011092
  },
  "Paithan": {
    "city": "Paithan",
    "district": "Chattrapati Sambhajinagar",
    "lat": 19.4733594,
    "lon": 75.3868103
  },
  "Palam": {
    "city": "Palam",
    "district": "Parbhani",
    "lat": 19.0101426,
    "lon": 76.9516847
  },
  "Palghar": {
    "city": "Palghar",
    "district": "Palghar",
    "lat": 19.6978882,
    "lon": 72.7718888
  },
  "Palus": {
    "city": "Palus",
    "district": "Sangli",
    "lat": 17.0449956,
    "lon": 74.4365833
  },
  "Pandhakawada": {
    "city": "Pandharkawada",
    "district": "Yavatmal",
    "lat": 20.0231391,
    "lon": 78.5477347
  },
  "Pandharpur": {
    "city": "Pandharpur",
    "district": "Solapur",
    "lat": 17.7255921,
    "lon": 75.3001936
  },
  "Panvel": {
    "city": "Panvel",
    "district": "Raigad",
    "lat": 18.9895249,
    "lon": 73.1221935
  },
  "Parali Vaijyanath": {
    "city": "Parli Vaijnath",
    "district": "Beed",
    "lat": 18.8527263,
    "lon": 76.5248259
  },
  "Paranda": {
    "city": "Paranda",
    "district": "Dharashiv",
    "lat": 18.2683477,
    "lon": 75.4507536
  },
  "Parbhani": {
    "city": "Parbhani",
    "district": "Parbhani",
    "lat": 19.2447104,
    "lon": 76.776084
  },
  "Parner": {
    "city": "Parner",
    "district": "Ahmednagar",
    "lat": 19.0931856,
    "lon": 74.3940633
  },
  "Parola": {
    "city": "Parola",
    "district": "Jalgaon",
    "lat": 20.8313089,
    "lon": 75.1149176
  },
  "Parshiwani": {
    "city": "Parseoni",
    "district": "Nagpur",
    "lat": 21.4265024,
    "lon": 79.1354691
  },
  "Partur": {
    "city": "Partur",
    "district": "Jalna",
    "lat": 19.4882762,
    "lon": 76.2606978
  },
  "Patan": {
    "city": "Patan",
    "district": "Satara",
    "lat": 17.3565267,
    "lon": 73.8634207
  },
  "Pathardi": {
    "city": "Pathardi",
    "district": "Ahmednagar",
    "lat": 19.1717199,
    "lon": 75.174557
  },
  "Pathari": {
    "city": "Pathri",
    "district": "Parbhani",
    "lat": 19.2194612,
    "lon": 76.4284158
  },
  "Patoda": {
    "city": "Patoda",
    "district": "Beed",
    "lat": 18.8388363,
    "lon": 75.4635063
  },
  "Patur": {
    "city": "Patur",
    "district": "Akola",
    "lat": 20.4229459,
    "lon": 76.8632469
  },
  "Pavani": {
    "city": "Pauni",
    "district": "Bhandara",
    "lat": 20.7926372,
    "lon": 79.6359627
  },
  "Pen": {
    "city": "Pen",
    "district": "Raigad",
    "lat": 18.735385,
    "lon": 73.0868161
  },
  "Phaltan": {
    "city": "Phaltan",
    "district": "Satara",
    "lat": 17.9579342,
    "lon": 74.4142354
  },
  "Pimpalgaon": {
    "city": "Pimpalgaon Baswant",
    "district": "Nashik",
    "lat": 20.163372,
    "lon": 73.9850591
  },
  "Pombhurni": {
    "city": "Pombhurna",
    "district": "Chandrapur",
    "lat": 19.8768402,
    "lon": 79.633863
  },
  "Pulgaon": {
    "city": "Pulgaon",
    "district": "Wardha",
    "lat": 20.7258046,
    "lon": 78.3176198
  },
  "Pune": {
    "city": "Pune",
    "district": "Pune",
    "lat": 18.5213738,
    "lon": 73.8545071
  },
  "Purna": {
    "city": "Purna",
    "district": "Parbhani",
    "lat": 19.1810438,
    "lon": 76.9940331
  },
  "Pusad": {
    "city": "Pusad",
    "district": "Yavatmal",
    "lat": 19.8858198,
    "lon": 77.484612
  },
  "Rahata": {
    "city": "Rahata",
    "district": "Ahmednagar",
    "lat": 19.7170595,
    "lon": 74.4799561
  },
  "Rahuri": {
    "city": "Rahuri",
    "district": "Ahmednagar",
    "lat": 19.4031555,
    "lon": 74.6105605
  },
  "Rajura": {
    "city": "Rajura",
    "district": "Chandrapur",
    "lat": 19.7792814,
    "lon": 79.3657272
  },
  "Ralegaon": {
    "city": "Ralegaon",
    "district": "Yavatmal",
    "lat": 20.4227234,
    "lon": 78.5218429
  },
  "Ramtek": {
    "city": "Ramtek",
    "district": "Nagpur",
    "lat": 21.3957522,
    "lon": 79.3257474
  },
  "Ratnagiri": {
    "city": "Ratnagiri",
    "district": "Ratnagiri",
    "lat": 16.9933521,
    "lon": 73.2954371
  },
  "Raver": {
    "city": "Raver",
    "district": "Jalgaon",
    "lat": 21.2222313,
    "lon": 76.0444182
  },
  "Risod": {
    "city": "Risod",
    "district": "Washim",
    "lat": 20.0337576,
    "lon": 76.8340279
  },
  "Roha": {
    "city": "Roha",
    "district": "Raigad",
    "lat": 18.44658,
    "lon": 73.1238722
  },
  "Sadak Arjuni": {
    "city": "Sadak Arjuni",
    "district": "Gondia",
    "lat": 21.0931803,
    "lon": 80.1541573
  },
  "Sakri": {
    "city": "Sakri",
    "district": "Dhule",
    "lat": 20.9910829,
    "lon": 74.3154391
  },
  "Samudrapur": {
    "city": "Samudrapur",
    "district": "Wardha",
    "lat": 20.6131435,
    "lon": 79.0240112
  },
  "Sangamner": {
    "city": "Sangamner",
    "district": "Ahmednagar",
    "lat": 19.4906351,
    "lon": 74.2466821
  },
  "Sangli": {
    "city": "Sangli",
    "district": "Sangli",
    "lat": 16.8502534,
    "lon": 74.5948885
  },
  "Sangola": {
    "city": "Sangola",
    "district": "Solapur",
    "lat": 17.4367612,
    "lon": 75.1881756
  },
  "Satana": {
    "city": "Satana",
    "district": "Nashik",
    "lat": 20.5991006,
    "lon": 74.2021078
  },
  "Satara": {
    "city": "Satara",
    "district": "Satara",
    "lat": 17.688321,
    "lon": 74.0041726
  },
  "Savali": {
    "city": "Saoli",
    "district": "Chandrapur",
    "lat": 20.0825113,
    "lon": 79.7857147
  },
  "Savner": {
    "city": "Saoner",
    "district": "Nagpur",
    "lat": 21.3847093,
    "lon": 78.9188075
  },
  "Selu": {
    "city": "Sailu",
    "district": "Parbhani",
    "lat": 19.4548608,
    "lon": 76.4388052
  },
  "Sengoan": {
    "city": "Sengaon",
    "district": "Hingoli",
    "lat": 19.8200152,
    "lon": 76.7942467
  },
  "Shahada": {
    "city": "Shahada",
    "district": "Nandurbar",
    "lat": 21.5409188,
    "lon": 74.4716616
  },
  "Shahapur": {
    "city": "Shahapur",
    "district": "Thane",
    "lat": 19.4517936,
    "lon": 73.3265956
  },
  "Shegaon": {
    "city": "Shegaon",
    "district": "Buldhana",
    "lat": 20.8007513,
    "lon": 76.6905257
  },
  "Shevgaon": {
    "city": "Shevgaon",
    "district": "Ahmednagar",
    "lat": 19.3797171,
    "lon": 75.2954872
  },
  "Shirpur": {
    "city": "Shirpur",
    "district": "Dhule",
    "lat": 21.3527715,
    "lon": 74.8841836
  },
  "Shirur": {
    "city": "Shirur",
    "district": "Pune",
    "lat": 18.7610989,
    "lon": 74.209529
  },
  "Shrigonda": {
    "city": "Shrigonda",
    "district": "Ahmednagar",
    "lat": 18.6763838,
    "lon": 74.6709339
  },
  "Shrirampur": {
    "city": "Shrirampur",
    "district": "Ahmednagar",
    "lat": 19.6419712,
    "lon": 74.700709
  },
  "Sillod": {
    "city": "Sillod",
    "district": "Chattrapati Sambhajinagar",
    "lat": 20.2997045,
    "lon": 75.6524885
  },
  "Sindevahi": {
    "city": "Sindewahi",
    "district": "Chandrapur",
    "lat": 20.2922302,
    "lon": 79.6566541
  },
  "Sindi": {
    "city": "Sindi",
    "district": "Wardha",
    "lat": 20.8046434,
    "lon": 78.8870287
  },
  "Sindkhed Raja": {
    "city": "Sindkhed Raja",
    "district": "Buldhana",
    "lat": 20.0566065,
    "lon": 76.3890318
  },
  "Sinner": {
    "city": "Sinnar",
    "district": "Nashik",
    "lat": 19.8453138,
    "lon": 74.0000241
  },
  "Sironcha": {
    "city": "Sironcha",
    "district": "Gadchiroli",
    "lat": 18.8481969,
    "lon": 79.9639321
  },
  "Solapur": {
    "city": "Solapur",
    "district": "Solapur",
    "lat": 17.6799325,
    "lon": 75.927467
  },
  "Sonpeth": {
    "city": "Sonpeth",
    "district": "Parbhani",
    "lat": 18.9800057,
    "lon": 76.572859
  },
  "Suragana": {
    "city": "Surgana",
    "district": "Nashik",
    "lat": 20.5592432,
    "lon": 73.6375614
  },
  "Tadkalas": {
    "city": "Tadkalas",
    "district": "Parbhani",
    "lat": 19.131303,
    "lon": 76.9442401
  },
  "Taloda": {
    "city": "Taloda",
    "district": "Nandurbar",
    "lat": 21.5627715,
    "lon": 74.2123371
  },
  "Tasgaon": {
    "city": "Tasgaon",
    "district": "Sangli",
    "lat": 17.0904859,
    "lon": 74.6832675
  },
  "Telhara": {
    "city": "Telhara",
    "district": "Akola",
    "lat": 21.0377518,
    "lon": 76.8671322
  },
  "Tiroda": {
    "city": "Tiroda",
    "district": "Gondia",
    "lat": 21.4112516,
    "lon": 79.9729823
  },
  "Tuljapur": {
    "city": "Tuljapur",
    "district": "Dharashiv",
    "lat": 18.0086617,
    "lon": 76.0707924
  },
  "Tumsar": {
    "city": "Tumsar",
    "district": "Bhandara",
    "lat": 21.3820399,
    "lon": 79.7500206
  },
  "Udgir": {
    "city": "Udgir",
    "district": "Latur",
    "lat": 18.3921349,
    "lon": 77.1196118
  },
  "Ulhasnagar": {
    "city": "Ulhasnagar",
    "district": "Thane",
    "lat": 19.2236329,
    "lon": 73.1671515
  },
  "Umared": {
    "city": "Umred",
    "district": "Nagpur",
    "lat": 20.8473369,
    "lon": 79.3247598
  },
  "Umarga": {
    "city": "Omerga",
    "district": "Dharashiv",
    "lat": 17.8365426,
    "lon": 76.6250052
  },
  "Umari": {
    "city": "Umri",
    "district": "Nanded",
    "lat": 19.0217132,
    "lon": 77.5890357
  },
  "Umarkhed": {
    "city": "Umarkhed",
    "district": "Yavatmal",
    "lat": 19.5982171,
    "lon": 77.9140993
  },
  "Umrane": {
    "city": "Umrane",
    "district": "Nashik",
    "lat": 20.42407,
    "lon": 74.346869
  },
  "Vadgaonpeth": {
    "city": "Vadgaon",
    "district": "Kolhapur",
    "lat": 16.5793365,
    "lon": 74.2303812
  },
  "Vaduj": {
    "city": "Vaduj",
    "district": "Satara",
    "lat": 17.5950822,
    "lon": 74.4504661
  },
  "Vadvani": {
    "city": "Wadwani",
    "district": "Beed",
    "lat": 18.9906344,
    "lon": 76.0410132
  },
  "Vai": {
    "city": "Wai",
    "district": "Satara",
    "lat": 17.9423742,
    "lon": 73.9192535
  },
  "Vaijpur": {
    "city": "Vaijapur",
    "district": "Chattrapati Sambhajinagar",
    "lat": 19.9489045,
    "lon": 74.8332477
  },
  "Vani": {
    "city": "Wani",
    "district": "Yavatmal",
    "lat": 20.0574,
    "lon": 78.9565
  },
  "Varora": {
    "city": "Warora",
    "district": "Chandrapur",
    "lat": 20.2342965,
    "lon": 79.0027504
  },
  "Varud": {
    "city": "Warud",
    "district": "Amravati",
    "lat": 21.473109,
    "lon": 78.2728518
  },
  "Vasai": {
    "city": "Vasai",
    "district": "Palghar",
    "lat": 19.3428238,
    "lon": 72.805441
  },
  "Vashi New Mumbai": {
    "city": "Navi Mumbai",
    "district": "Thane",
    "lat": 19.0734509,
    "lon": 73.0106205
  },
  "Vita": {
    "city": "Vita",
    "district": "Sangli",
    "lat": 17.271977,
    "lon": 74.5372841
  },
  "Wardha": {
    "city": "Wardha",
    "district": "Wardha",
    "lat": 20.7464941,
    "lon": 78.5997922
  },
  "Washi (Dharashiv)": {
    "city": "Washi",
    "district": "Dharashiv",
    "lat": 18.5349906,
    "lon": 75.8030152
  },
  "Washim": {
    "city": "Washim",
    "district": "Washim",
    "lat": 20.3721672,
    "lon": 77.2475837
  },
  "Yawal": {
    "city": "Yawal",
    "district": "Jalgaon",
    "lat": 21.2260018,
    "lon": 75.6950825
  },
  "Yeola": {
    "city": "Yeola",
    "district": "Nashik",
    "lat": 20.0429079,
    "lon": 74.4880389
  },
  "Yeotmal": {
    "city": "Yavatmal",
    "district": "Yavatmal",
    "lat": 20.390344,
    "lon": 78.1328518
  },
  "ZariZamini": {
    "city": "Zari Jamni",
    "district": "Yavatmal",
    "lat": 19.865462,
    "lon": 78.731542
  }
}